{
"type": "FeatureCollection",
"name": "county_labels",
"crs": { "type": "name", "properties": { "name": "urn:ogc:def:crs:EPSG::4269" } },
"features": [
{ "type": "Feature", "properties": { "county": "DeKalb", "state": "GA" }, "geometry": { "type": "Point", "coordinates": [ -84.226412077791267, 33.771557257865254 ] } },
{ "type": "Feature", "properties": { "county": "Pickens", "state": "GA" }, "geometry": { "type": "Point", "coordinates": [ -84.465635341892508, 34.464318159351009 ] } },
{ "type": "Feature", "properties": { "county": "Franklin", "state": "GA" }, "geometry": { "type": "Point", "coordinates": [ -83.229067408084219, 34.375398965660999 ] } },
{ "type": "Feature", "properties": { "county": "Walton", "state": "GA" }, "geometry": { "type": "Point", "coordinates": [ -83.733846543176696, 33.781557078923086 ] } },
{ "type": "Feature", "properties": { "county": "Hart", "state": "GA" }, "geometry": { "type": "Point", "coordinates": [ -82.964247598024599, 34.350898332253955 ] } },
{ "type": "Feature", "properties": { "county": "Barrow", "state": "GA" }, "geometry": { "type": "Point", "coordinates": [ -83.712755175426295, 33.993196205623235 ] } },
{ "type": "Feature", "properties": { "county": "Union", "state": "GA" }, "geometry": { "type": "Point", "coordinates": [ -83.990719957366281, 34.834025717907387 ] } },
{ "type": "Feature", "properties": { "county": "Habersham", "state": "GA" }, "geometry": { "type": "Point", "coordinates": [ -83.531128969868888, 34.631033282138468 ] } },
{ "type": "Feature", "properties": { "county": "Hall", "state": "GA" }, "geometry": { "type": "Point", "coordinates": [ -83.793732832275978, 34.325705718611779 ] } },
{ "type": "Feature", "properties": { "county": "Clarke", "state": "GA" }, "geometry": { "type": "Point", "coordinates": [ -83.367340061763883, 33.951244804527178 ] } },
{ "type": "Feature", "properties": { "county": "Dawson", "state": "GA" }, "geometry": { "type": "Point", "coordinates": [ -84.153423027799874, 34.413093289234155 ] } },
{ "type": "Feature", "properties": { "county": "White", "state": "GA" }, "geometry": { "type": "Point", "coordinates": [ -83.747108214824735, 34.646390575895353 ] } },
{ "type": "Feature", "properties": { "county": "Gwinnett", "state": "GA" }, "geometry": { "type": "Point", "coordinates": [ -84.023540994059687, 33.961909632679493 ] } },
{ "type": "Feature", "properties": { "county": "Stephens", "state": "GA" }, "geometry": { "type": "Point", "coordinates": [ -83.293187222981132, 34.554068840459095 ] } },
{ "type": "Feature", "properties": { "county": "Banks", "state": "GA" }, "geometry": { "type": "Point", "coordinates": [ -83.497229992163383, 34.354340349905193 ] } },
{ "type": "Feature", "properties": { "county": "Jackson", "state": "NC" }, "geometry": { "type": "Point", "coordinates": [ -83.140849618586515, 35.287586625173141 ] } },
{ "type": "Feature", "properties": { "county": "Elbert", "state": "GA" }, "geometry": { "type": "Point", "coordinates": [ -82.840095497719162, 34.11679328464821 ] } },
{ "type": "Feature", "properties": { "county": "Macon", "state": "NC" }, "geometry": { "type": "Point", "coordinates": [ -83.422165910689102, 35.150468850987842 ] } },
{ "type": "Feature", "properties": { "county": "Towns", "state": "GA" }, "geometry": { "type": "Point", "coordinates": [ -83.737278547341973, 34.916705502885421 ] } },
{ "type": "Feature", "properties": { "county": "Oconee", "state": "SC" }, "geometry": { "type": "Point", "coordinates": [ -83.100141549586482, 34.749463599983372 ] } },
{ "type": "Feature", "properties": { "county": "Fulton", "state": "GA" }, "geometry": { "type": "Point", "coordinates": [ -84.442317798590267, 33.751350005564497 ] } },
{ "type": "Feature", "properties": { "county": "Oglethorpe", "state": "GA" }, "geometry": { "type": "Point", "coordinates": [ -83.08070320978004, 33.880647960416496 ] } },
{ "type": "Feature", "properties": { "county": "Rabun", "state": "GA" }, "geometry": { "type": "Point", "coordinates": [ -83.402076483270264, 34.881724615592013 ] } },
{ "type": "Feature", "properties": { "county": "Oconee", "state": "GA" }, "geometry": { "type": "Point", "coordinates": [ -83.437054781482132, 33.834940285489289 ] } },
{ "type": "Feature", "properties": { "county": "Madison", "state": "GA" }, "geometry": { "type": "Point", "coordinates": [ -83.20903610379392, 34.127782771276912 ] } },
{ "type": "Feature", "properties": { "county": "Cherokee", "state": "GA" }, "geometry": { "type": "Point", "coordinates": [ -84.476208519733163, 34.243978316742343 ] } },
{ "type": "Feature", "properties": { "county": "Jackson", "state": "GA" }, "geometry": { "type": "Point", "coordinates": [ -83.566445012965872, 34.133966828431944 ] } },
{ "type": "Feature", "properties": { "county": "Lumpkin", "state": "GA" }, "geometry": { "type": "Point", "coordinates": [ -83.981043198246923, 34.556300830668192 ] } },
{ "type": "Feature", "properties": { "county": "Forsyth", "state": "GA" }, "geometry": { "type": "Point", "coordinates": [ -84.125042658849665, 34.225534123353405 ] } },
{ "type": "Feature", "properties": { "county": "Fannin", "state": "GA" }, "geometry": { "type": "Point", "coordinates": [ -84.327466009357408, 34.895984393833977 ] } },
{ "type": "Feature", "properties": { "county": "Clay", "state": "NC" }, "geometry": { "type": "Point", "coordinates": [ -83.750162744861612, 35.057190706059288 ] } },
{ "type": "Feature", "properties": { "county": "Gilmer", "state": "GA" }, "geometry": { "type": "Point", "coordinates": [ -84.455621940774051, 34.69118157614956 ] } }
]
}
